{
	"orgs": {
		"frg": {
			"org": [
				{
					"id": "597643",
					"lat": "22.654709700000002",
					"lng": "120.283224199999",
					"informaddress": "高雄市鼓山區美術館路261號1樓",
					"hlink": "",
					"informtel": "〈07〉555-1270",
					"servItem": "物理、職能",
					"servTime": "",
					"dataOrg": "衛生局",
					"doOrg": "",
					"text": "李威德復健科診所"
				},
				{
					"id": "597648",
					"lat": "22.692573800000002",
					"lng": "120.2985929",
					"informaddress": "高雄市左營區左營大路692號",
					"hlink": "",
					"informtel": "〈07〉585-7673",
					"servItem": "物理、語言",
					"servTime": "",
					"dataOrg": "衛生局",
					"doOrg": "",
					"text": "德能診所"
				},
				{
					"id": "597653",
					"lat": "22.661751800000001",
					"lng": "120.30833329999901",
					"informaddress": "高雄市左營區自由二路215號",
					"hlink": "",
					"informtel": "〈07〉556-1650",
					"servItem": "物理、職能",
					"servTime": "",
					"dataOrg": "衛生局",
					"doOrg": "",
					"text": "大道診所"
				},
				{
					"id": "597654",
					"lat": "22.7135020",
					"lng": "120.2909110",
					"informaddress": "高雄市楠梓區軍校路930號",
					"hlink": "",
					"informtel": "〈07〉364-3388＃2201",
					"servItem": "物理、職能、語言",
					"servTime": "",
					"dataOrg": "",
					"doOrg": "",
					"text": "右昌聯合醫院"
				},
				{
					"id": "597671",
					"lat": "22.6480612",
					"lng": "120.2995451",
					"informaddress": "高雄市三民區察哈爾二街132號",
					"hlink": "",
					"informtel": "〈07〉322-5253",
					"servItem": "物理、職能、語言",
					"servTime": "",
					"dataOrg": "衛生局",
					"doOrg": "",
					"text": "文雄醫院"
				},
				{
					"id": "597682",
					"lat": "22.6618870",
					"lng": "120.3128821",
					"informaddress": "高雄市三民區明福街17號",
					"hlink": "",
					"informtel": "〈07〉343-8578",
					"servItem": "物理、職能",
					"servTime": "",
					"dataOrg": "衛生局",
					"doOrg": "",
					"text": "宇泰復健科診所"
				},
				{
					"id": "597690",
					"lat": "22.627811099999999",
					"lng": "120.3214837",
					"informaddress": "高雄市苓雅區同慶路60號",
					"hlink": "",
					"informtel": "〈07〉223-1670",
					"servItem": "物理、職能、語言",
					"servTime": "",
					"dataOrg": "衛生局",
					"doOrg": "",
					"text": "大益診所"
				},
				{
					"id": "597692",
					"lat": "22.607099999999999",
					"lng": "120.31177599999999",
					"informaddress": "高雄市前鎮區民權二路180號2樓",
					"hlink": "",
					"informtel": "〈07〉335-0802",
					"servItem": "物理、職能、語言",
					"servTime": "",
					"dataOrg": "衛生局",
					"doOrg": "",
					"text": "安柏鄰好中西醫聯合診所"
				},
				{
					"id": "597694",
					"lat": "22.626200300000001",
					"lng": "120.35873679999899",
					"informaddress": "高雄市鳳山區光遠路360號",
					"hlink": "",
					"informtel": "〈07〉740-8650",
					"servItem": "物理、職能、語言",
					"servTime": "",
					"dataOrg": "衛生局",
					"doOrg": "",
					"text": "新高鳳醫院"
				},
				{
					"id": "597695",
					"lat": "22.6494550",
					"lng": "120.3563160",
					"informaddress": "高雄市鳥松區大埤路123號",
					"hlink": "",
					"informtel": "〈07〉731-7123#8841",
					"servItem": "物理、職能、語言、音樂",
					"servTime": "",
					"dataOrg": "衛生局",
					"doOrg": "",
					"text": "高雄長庚紀念醫院"
				},
				{
					"id": "857181",
					"lat": "22.6698730",
					"lng": "120.3058060",
					"informaddress": "高雄市左營區新庄仔路233號",
					"hlink": "",
					"informtel": "07-3410523",
					"servItem": "物理、職能、語言",
					"servTime": "",
					"dataOrg": "衛生局",
					"doOrg": "",
					"text": "德裕復健科診所"
				},
				{
					"id": "857183",
					"lat": "22.6663350",
					"lng": "120.3102061",
					"informaddress": "高雄市左營區辛亥路251號",
					"hlink": "",
					"informtel": "07-5561129",
					"servItem": "物理、職能、語言",
					"servTime": "",
					"dataOrg": "衛生局",
					"doOrg": "",
					"text": "信望愛復健科診所"
				},
				{
					"id": "857185",
					"lat": "22.620877",
					"lng": "120.31578",
					"informaddress": "高雄市苓雅區四維二路331號",
					"hlink": "",
					"informtel": "07-3329655",
					"servItem": "物理、職能(自費)",
					"servTime": "",
					"dataOrg": "衛生局",
					"doOrg": "",
					"text": "維新復健科診所"
				},
				{
					"id": "857187",
					"lat": "22.6302227",
					"lng": "120.3211258",
					"informaddress": "高雄市苓雅區中正二路20號",
					"hlink": "",
					"informtel": "07-2261989",
					"servItem": "物理、職能、語言",
					"servTime": "",
					"dataOrg": "衛生局",
					"doOrg": "",
					"text": "杉合聯合診所"
				},
				{
					"id": "857189",
					"lat": "22.6203599",
					"lng": "120.3244847",
					"informaddress": "高雄市苓雅區三多二路93號",
					"hlink": "",
					"informtel": "07-7151771",
					"servItem": "物理、職能",
					"servTime": "",
					"dataOrg": "衛生局",
					"doOrg": "",
					"text": "示康診所"
				},
				{
					"id": "89151",
					"lat": "22.62715",
					"lng": "120.296938",
					"informaddress": "高雄市前金區中華三路68號",
					"hlink": "",
					"informtel": "〈07〉291-1101＃8347",
					"servItem": "物理、職能、語言",
					"servTime": "",
					"dataOrg": "兒童福利服務中心",
					"doOrg": "",
					"text": "高雄市立大同醫院"
				},
				{
					"id": "89186",
					"lat": "22.625121",
					"lng": "120.324039",
					"informaddress": "高雄市苓雅區凱旋二路130號",
					"hlink": "",
					"informtel": "〈07〉751-3171＃2812、2166",
					"servItem": "職能、心理",
					"servTime": "",
					"dataOrg": "兒童福利服務中心",
					"doOrg": "",
					"text": "高雄市立凱旋醫院"
				},
				{
					"id": "597684",
					"lat": "22.637419900000001",
					"lng": "120.3386051",
					"informaddress": "高雄市三民區九如一路196號",
					"hlink": "",
					"informtel": "〈07〉385-1603",
					"servItem": "物理、職能",
					"servTime": "",
					"dataOrg": "衛生局",
					"doOrg": "",
					"text": "良醫診所"
				},
				{
					"id": "597685",
					"lat": "22.6396319",
					"lng": "120.3485855",
					"informaddress": "高雄市三民區文濱路60號2樓",
					"hlink": "",
					"informtel": "〈07〉777-4649",
					"servItem": "語言(自費)",
					"servTime": "",
					"dataOrg": "衛生局",
					"doOrg": "",
					"text": "曦望語言治療所"
				},
				{
					"id": "597686",
					"lat": "22.6577314",
					"lng": "120.3198932",
					"informaddress": "高雄市三民區大昌一路305號",
					"hlink": "",
					"informtel": "〈07〉559-9123#7536、7531",
					"servItem": "物理、職能、語言、心理",
					"servTime": "",
					"dataOrg": "衛生局",
					"doOrg": "",
					"text": "義大大昌醫院"
				},
				{
					"id": "597688",
					"lat": "22.633413999999998",
					"lng": "120.297147",
					"informaddress": "高雄市新興區七賢二路97號",
					"hlink": "",
					"informtel": "〈07〉287-6080#202",
					"servItem": "物理、職能、語言",
					"servTime": "",
					"dataOrg": "衛生局",
					"doOrg": "",
					"text": "新華醫院"
				},
				{
					"id": "597697",
					"lat": "22.795735700000002",
					"lng": "120.2957629",
					"informaddress": "高雄市岡山區岡山路428號7樓",
					"hlink": "",
					"informtel": "〈07〉622-1906",
					"servItem": "物理、職能",
					"servTime": "",
					"dataOrg": "衛生局",
					"doOrg": "",
					"text": "劉嘉修復健醫院"
				},
				{
					"id": "89187",
					"lat": "22.626657",
					"lng": "120.323592",
					"informaddress": "高雄市苓雅區凱旋二路134號",
					"hlink": "",
					"informtel": "〈07〉751-1131＃2005",
					"servItem": "物理、職能",
					"servTime": "",
					"dataOrg": "兒童福利服務中心",
					"doOrg": "",
					"text": "高雄市立民生醫院"
				},
				{
					"id": "89188",
					"lat": "22.633891",
					"lng": "120.314221",
					"informaddress": "高雄市新興區七賢一路102號",
					"hlink": "",
					"informtel": "〈07〉224-0252＃19",
					"servItem": "物理、職能、語言",
					"servTime": "",
					"dataOrg": "兒童福利服務中心",
					"doOrg": "",
					"text": "蕭志文醫院"
				},
				{
					"id": "89190",
					"lat": "22.623118",
					"lng": "120.30905",
					"informaddress": "高雄市新興區五福二路158號",
					"hlink": "",
					"informtel": "〈07〉241-6888",
					"servItem": "物理、職能、語言",
					"servTime": "",
					"dataOrg": "兒童福利服務中心",
					"doOrg": "",
					"text": "晉安復健科診所"
				},
				{
					"id": "89191",
					"lat": "22.727279",
					"lng": "120.329808",
					"informaddress": "高雄市楠梓區楠梓新路138-1號",
					"hlink": "",
					"informtel": "〈07〉353-9760",
					"servItem": "物理、職能、語言",
					"servTime": "",
					"dataOrg": "兒童福利服務中心",
					"doOrg": "",
					"text": "禾順復健科診所"
				},
				{
					"id": "89193",
					"lat": "22.654927",
					"lng": "120.291194",
					"informaddress": "高雄市鼓山區中華ㄧ路976號",
					"hlink": "",
					"informtel": "〈07〉555-2565＃2709",
					"servItem": "物理、職能、語言",
					"servTime": "",
					"dataOrg": "兒童福利服務中心",
					"doOrg": "",
					"text": "高雄市立聯合醫院"
				},
				{
					"id": "89194",
					"lat": "22.8807955",
					"lng": "120.483264",
					"informaddress": "高雄市旗山區中學路60號",
					"hlink": "",
					"informtel": "(07)661-3811＃1019",
					"servItem": "評估、物理、職能、語言",
					"servTime": "",
					"dataOrg": "衛生福利部",
					"doOrg": "",
					"text": "衛生福利部旗山醫院"
				},
				{
					"id": "89195",
					"lat": "22.611575",
					"lng": "120.267269",
					"informaddress": "高雄市旗津區旗港路33號",
					"hlink": "",
					"informtel": "〈07〉571-1188#1103",
					"servItem": "物理、職能、語言",
					"servTime": "",
					"dataOrg": "兒童福利服務中心",
					"doOrg": "",
					"text": "高雄市立旗津醫院"
				},
				{
					"id": "89196",
					"lat": "22.597721",
					"lng": "120.335168",
					"informaddress": "高雄市鳳山區福祥街81號",
					"hlink": "",
					"informtel": "〈07〉812-6000＃1206",
					"servItem": "物理、職能、語言",
					"servTime": "",
					"dataOrg": "兒童福利服務中心",
					"doOrg": "",
					"text": "惠德醫院"
				},
				{
					"id": "89198",
					"lat": "22.626372",
					"lng": "120.374302",
					"informaddress": "高雄市鳳山區博愛路23號",
					"hlink": "",
					"informtel": "〈07〉701-7958",
					"servItem": "物理、職能",
					"servTime": "",
					"dataOrg": "兒童福利服務中心",
					"doOrg": "",
					"text": "博勝復健科診所"
				},
				{
					"id": "89199",
					"lat": "22.765493",
					"lng": "120.364639",
					"informaddress": "高雄市燕巢區角宿村義大路1號",
					"hlink": "",
					"informtel": "〈07〉615-0011＃2332、2353",
					"servItem": "物理、職能、語言",
					"servTime": "",
					"dataOrg": "兒童福利服務中心",
					"doOrg": "",
					"text": "義大醫院"
				},
				{
					"id": "89200",
					"lat": "22.781497",
					"lng": "120.41639",
					"informaddress": "高雄市燕巢區深水村深水路3之20號",
					"hlink": "",
					"informtel": "〈07〉615-6555＃126",
					"servItem": "物理、職能、語言",
					"servTime": "",
					"dataOrg": "兒童福利服務中心",
					"doOrg": "",
					"text": "靜和醫院燕巢分院"
				},
				{
					"id": "163016",
					"lat": "22.6025989",
					"lng": "120.3249605",
					"informaddress": "高雄市前鎮區班超路92號",
					"hlink": "",
					"informtel": "(07)771-7503",
					"servItem": "物理、職能、語言",
					"servTime": "",
					"dataOrg": "衛生局",
					"doOrg": "",
					"text": "瑞祥醫院"
				},
				{
					"id": "89135",
					"lat": "22.64559",
					"lng": "120.309148",
					"informaddress": "高雄市三民區自由ㄧ路100號",
					"hlink": "",
					"informtel": "〈07〉312-1101＃5710",
					"servItem": "物理、職能、語言、心理",
					"servTime": "",
					"dataOrg": "兒童福利服務中心",
					"doOrg": "",
					"text": "高雄醫學大學附設中和紀念醫院"
				},
				{
					"id": "89136",
					"lat": "22.6597127",
					"lng": "120.3270595",
					"informaddress": "高雄市三民區明誠一路192號",
					"hlink": "",
					"informtel": "〈07〉342-7966",
					"servItem": "物理、職能、語言、音樂、特教",
					"servTime": "",
					"dataOrg": "兒童福利服務中心",
					"doOrg": "",
					"text": "青彰復健科診所"
				},
				{
					"id": "89138",
					"lat": "22.63949",
					"lng": "120.338779",
					"informaddress": "高雄市三民區覺民路82號",
					"hlink": "",
					"informtel": "〈07〉381-1366",
					"servItem": "物理、職能、語言",
					"servTime": "",
					"dataOrg": "兒童福利服務中心",
					"doOrg": "",
					"text": "建宏復健科診所"
				},
				{
					"id": "89139",
					"lat": "22.567359",
					"lng": "120.363101",
					"informaddress": "高雄市小港區山明路482號",
					"hlink": "",
					"informtel": "〈07〉803-6783＃3537",
					"servItem": "物理、職能、語言",
					"servTime": "",
					"dataOrg": "兒童福利服務中心",
					"doOrg": "",
					"text": "高雄市立小港醫院"
				},
				{
					"id": "89140",
					"lat": "22.677537",
					"lng": "120.322504",
					"informaddress": "高雄市左營區大中ㄧ路386號",
					"hlink": "",
					"informtel": "〈07〉342-2121＃4218、4207",
					"servItem": "物理、職能、語言",
					"servTime": "",
					"dataOrg": "兒童福利服務中心",
					"doOrg": "",
					"text": "高雄榮民總醫院"
				},
				{
					"id": "89141",
					"lat": "22.676771",
					"lng": "120.287151",
					"informaddress": "高雄市左營區左營大路2-60號",
					"hlink": "",
					"informtel": "〈07〉588-3380",
					"servItem": "物理、職能、語言",
					"servTime": "",
					"dataOrg": "兒童福利服務中心",
					"doOrg": "",
					"text": "佑榮復健科診所"
				},
				{
					"id": "89144",
					"lat": "22.701558",
					"lng": "120.2898223",
					"informaddress": "高雄市左營區軍校路553號",
					"hlink": "",
					"informtel": "〈07〉581-7121＃2091",
					"servItem": "物理",
					"servTime": "",
					"dataOrg": "兒童福利服務中心",
					"doOrg": "",
					"text": "國軍總醫院"
				},
				{
					"id": "89146",
					"lat": "22.6726240",
					"lng": "120.2913150",
					"informaddress": "高雄市左營區翠華路609號",
					"hlink": "",
					"informtel": "〈07〉588-1977",
					"servItem": "物理、職能、語言",
					"servTime": "",
					"dataOrg": "兒童福利服務中心",
					"doOrg": "",
					"text": "嘉仁診所"
				},
				{
					"id": "597683",
					"lat": "22.6499518",
					"lng": "120.3181974",
					"informaddress": "高雄市三民區莊敬路288號",
					"hlink": "",
					"informtel": "〈07〉390-9230",
					"servItem": "物理、職能、語言",
					"servTime": "",
					"dataOrg": "衛生局",
					"doOrg": "",
					"text": "新高醫院"
				},
				{
					"id": "89185",
					"lat": "22.6333516",
					"lng": "120.3239848",
					"informaddress": "高雄市苓雅區建國一路352號",
					"hlink": "",
					"informtel": "〈07〉223-8153＃2237",
					"servItem": "物理、職能、語言",
					"servTime": "",
					"dataOrg": "兒童福利服務中心",
					"doOrg": "",
					"text": "天主教聖功醫院"
				},
				{
					"id": "597644",
					"lat": "22.663504",
					"lng": "120.294168",
					"informaddress": "高雄市鼓山區裕誠路1580號",
					"hlink": "",
					"informtel": "〈07〉553-2356",
					"servItem": "物理、職能、語言",
					"servTime": "",
					"dataOrg": "衛生局",
					"doOrg": "",
					"text": "長佑診所"
				},
				{
					"id": "597647",
					"lat": "22.6580777",
					"lng": "120.30363060000001",
					"informaddress": "高雄市左營區博愛二路100號",
					"hlink": "",
					"informtel": "〈07〉556-2212",
					"servItem": "物理、職能、語言",
					"servTime": "",
					"dataOrg": "衛生局",
					"doOrg": "",
					"text": "博正醫院"
				},
				{
					"id": "597656",
					"lat": "22.7236712",
					"lng": "120.3290911",
					"informaddress": "高雄市楠梓區楠陽路136號",
					"hlink": "",
					"informtel": "〈07〉351-716＃3219",
					"servItem": "物理、職能",
					"servTime": "",
					"dataOrg": "衛生局",
					"doOrg": "",
					"text": "健仁醫院"
				},
				{
					"id": "597658",
					"lat": "22.726543100000001",
					"lng": "120.294896399999",
					"informaddress": "高雄市楠梓區藍田路19號",
					"hlink": "",
					"informtel": "〈07〉591-2768",
					"servItem": "物理、職能",
					"servTime": "",
					"dataOrg": "衛生局",
					"doOrg": "",
					"text": "家毅復健科診所"
				},
				{
					"id": "857190",
					"lat": "22.6354628",
					"lng": "120.3614490",
					"informaddress": "高雄市鳳山區建國路二段57之1號",
					"hlink": "",
					"informtel": "07-7408681",
					"servItem": "物理、職能",
					"servTime": "",
					"dataOrg": "衛生局",
					"doOrg": "",
					"text": "晨恩復健科診所"
				},
				{
					"id": "857193",
					"lat": "22.7201803",
					"lng": "120.2881758",
					"informaddress": "高雄市楠梓區德民路979號",
					"hlink": "",
					"informtel": "07-3655991",
					"servItem": "物理",
					"servTime": "",
					"dataOrg": "衛生局",
					"doOrg": "",
					"text": "德嘉復健科診所"
				},
				{
					"id": "597698",
					"lat": "22.787980300000001",
					"lng": "120.2967518",
					"informaddress": "高雄市岡山區岡山路92號",
					"hlink": "",
					"informtel": "〈07〉622-9292#1213",
					"servItem": "物理、職能、語言",
					"servTime": "",
					"dataOrg": "衛生局",
					"doOrg": "",
					"text": "惠川醫院"
				},
				{
					"id": "857194",
					"lat": "22.7280609",
					"lng": "120.3260972",
					"informaddress": "高雄市楠梓區楠梓新路252號1-3樓、254號1樓",
					"hlink": "",
					"informtel": "07-3524100",
					"servItem": "語言、職能、物理",
					"servTime": "",
					"dataOrg": "衛生局",
					"doOrg": "",
					"text": "元景耳鼻喉科神經科診所"
				},
				{
					"id": "857195",
					"lat": "22.6638351",
					"lng": "120.3001408",
					"informaddress": "高雄市鼓山區南屏539號",
					"hlink": "",
					"informtel": "07-5528885",
					"servItem": "物理、職能、語言",
					"servTime": "",
					"dataOrg": "衛生局",
					"doOrg": "",
					"text": "佳富復健科診所"
				},
				{
					"id": "597699",
					"lat": "22.858053600000002",
					"lng": "120.25865520000001",
					"informaddress": "高雄市路竹區延平路57號",
					"hlink": "",
					"informtel": "〈07〉696-5136#260",
					"servItem": "物理、職能、語言、心理",
					"servTime": "",
					"dataOrg": "衛生局",
					"doOrg": "",
					"text": "溫有諒醫院"
				},
				{
					"id": "857196",
					"lat": "22.6679398",
					"lng": "120.2969251",
					"informaddress": "高雄市鼓山區明倫路46號",
					"hlink": "",
					"informtel": "07-5504790",
					"servItem": "物理、職能",
					"servTime": "",
					"dataOrg": "衛生局",
					"doOrg": "",
					"text": "精華診所"
				},
				{
					"id": "597700",
					"lat": "22.884980500000001",
					"lng": "120.48547459999899",
					"informaddress": "高雄市旗山區中華路618號",
					"hlink": "",
					"informtel": "〈07〉662-2391#104",
					"servItem": "物理、職能",
					"servTime": "",
					"dataOrg": "衛生局",
					"doOrg": "",
					"text": "廣聖醫院"
				},
				{
					"id": "597701",
					"lat": "22.998574999999999",
					"lng": "120.63328799999999",
					"informaddress": "高雄市六龜區民治路16號2樓",
					"hlink": "",
					"informtel": "〈07〉689-3619",
					"servItem": "物理",
					"servTime": "",
					"dataOrg": "衛生局",
					"doOrg": "",
					"text": "康毅物理治療所"
				},
				{
					"id": "89152",
					"lat": "22.631172",
					"lng": "120.292929",
					"informaddress": "高雄市前金區自強一路67號",
					"hlink": "",
					"informtel": "〈07〉282-8668＃8000",
					"servItem": "物理、職能、語言",
					"servTime": "",
					"dataOrg": "兒童福利服務中心",
					"doOrg": "",
					"text": "上琳醫院"
				},
				{
					"id": "89156",
					"lat": "22.602385",
					"lng": "120.305978",
					"informaddress": "高雄市前鎮區中華五路987號",
					"hlink": "",
					"informtel": "〈07〉537-6995",
					"servItem": "物理、職能",
					"servTime": "",
					"dataOrg": "兒童福利服務中心",
					"doOrg": "",
					"text": "尚佑復健科診所"
				},
				{
					"id": "89157",
					"lat": "22.5970794",
					"lng": "120.3147208",
					"informaddress": "高雄市前鎮區市中華五路1011號",
					"hlink": "",
					"informtel": "〈07〉536-6396",
					"servItem": "物理、職能、語言",
					"servTime": "",
					"dataOrg": "兒童福利服務中心",
					"doOrg": "",
					"text": "易昌復健科診所"
				},
				{
					"id": "89159",
					"lat": "22.592711",
					"lng": "120.31353",
					"informaddress": "高雄市前鎮區翠亨北路547號",
					"hlink": "",
					"informtel": "〈07〉822-5558",
					"servItem": "物理、職能、語言",
					"servTime": "",
					"dataOrg": "兒童福利服務中心",
					"doOrg": "",
					"text": "美忠復健科診所"
				},
				{
					"id": "89161",
					"lat": "22.615551",
					"lng": "120.29739",
					"informaddress": "高雄市苓雅區成功一路162號",
					"hlink": "",
					"informtel": "〈07〉335-1121＃2278",
					"servItem": "物理、職能、語言",
					"servTime": "",
					"dataOrg": "兒童福利服務中心",
					"doOrg": "",
					"text": "阮綜合醫院"
				},
				{
					"id": "207480",
					"lat": "22.6769111",
					"lng": "120.3079643",
					"informaddress": "高雄市左營區文自路387巷53號1樓",
					"hlink": "",
					"informtel": "(07)345-5351",
					"servItem": "",
					"servTime": "",
					"dataOrg": "兒福中心",
					"doOrg": "",
					"text": "巴弄居家物理治療所"
				}
			],
			"id": "FRG0204"
		}
	}
}